14:05:02.329 $GPGGA,200500.700,3306.8027,N,09713.9914,W,1,06,1.56,236.6,M,-23.8,M,,*5D
14:05:02.335 $GPRMC,200500.700,A,3306.8027,N,09713.9914,W,0.19,21.72,111123,,,A*41
14:05:02.409 $GPGGA,200500.800,3306.8027,N,09713.9914,W,1,06,1.56,236.6,M,-23.8,M,,*52
14:05:02.451 $GPRMC,200500.800,A,3306.8027,N,09713.9914,W,0.17,21.72,111123,,,A*40
14:05:02.522 $GPGGA,200500.900,3306.8027,N,09713.9914,W,1,06,1.56,236.6,M,-23.8,M,,*53
14:05:02.562 $GPRMC,200500.900,A,3306.8027,N,09713.9914,W,0.13,21.72,111123,,,A*45
14:05:02.636 $GPGGA,200501.000,3306.8027,N,09713.9914,W,1,06,1.56,236.5,M,-23.8,M,,*58
14:05:02.642 $GPRMC,200501.000,A,3306.8027,N,09713.9914,W,0.11,21.72,111123,,,A*4F
14:05:02.714 $GPGGA,200501.100,3306.8027,N,09713.9914,W,1,06,1.56,236.6,M,-23.8,M,,*5A
14:05:02.754 $GPRMC,200501.100,A,3306.8027,N,09713.9914,W,0.10,21.72,111123,,,A*4F
14:05:02.826 $GPGGA,200501.200,3306.8027,N,09713.9914,W,1,06,1.56,236.6,M,-23.8,M,,*59
14:05:02.833 $GPRMC,200501.200,A,3306.8027,N,09713.9914,W,0.09,21.72,111123,,,A*44
14:05:02.939 $GPGGA,200501.300,3306.8027,N,09713.9914,W,1,06,1.56,236.6,M,-23.8,M,,*58
14:05:02.946 $GPRMC,200501.300,A,3306.8027,N,09713.9914,W,0.08,21.72,111123,,,A*44
14:05:03.018 $GPGGA,200501.400,3306.8027,N,09713.9914,W,1,06,1.56,236.5,M,-23.8,M,,*5C
14:05:03.061 $GPRMC,200501.400,A,3306.8027,N,09713.9914,W,0.08,21.72,111123,,,A*43
14:05:03.133 $GPGGA,200501.500,3306.8027,N,09713.9913,W,1,06,1.56,236.6,M,-23.8,M,,*59
14:05:03.140 $GPRMC,200501.500,A,3306.8027,N,09713.9913,W,0.08,21.72,111123,,,A*45
14:05:03.212 $GPGGA,200501.600,3306.8027,N,09713.9914,W,1,06,1.56,236.6,M,-23.8,M,,*5D
14:05:03.254 $GPRMC,200501.600,A,3306.8027,N,09713.9914,W,0.09,21.72,111123,,,A*40
14:05:03.325 $GPGGA,200501.700,3306.8027,N,09713.9913,W,1,06,1.56,236.6,M,-23.8,M,,*5B
14:05:03.332 $GPRMC,200501.700,A,3306.8027,N,09713.9913,W,0.09,21.72,111123,,,A*46
14:05:03.440 $GPGGA,200501.800,3306.8027,N,09713.9913,W,1,06,1.56,236.6,M,-23.8,M,,*54
14:05:03.447 $GPRMC,200501.800,A,3306.8027,N,09713.9913,W,0.09,21.72,111123,,,A*49
14:05:03.516 $GPGGA,200501.900,3306.8027,N,09713.9913,W,1,06,1.56,236.6,M,-23.8,M,,*55
14:05:03.558 $GPRMC,200501.900,A,3306.8027,N,09713.9913,W,0.08,21.72,111123,,,A*49
14:05:03.629 $GPGGA,200502.000,3306.8027,N,09713.9913,W,1,06,1.56,236.6,M,-23.8,M,,*5F
14:05:03.636 $GPRMC,200502.000,A,3306.8027,N,09713.9913,W,0.08,21.72,111123,,,A*43
14:05:03.744 $GPGGA,200502.100,3306.8027,N,09713.9913,W,1,06,1.56,236.6,M,-23.8,M,,*5E
14:05:03.750 $GPRMC,200502.100,A,3306.8027,N,09713.9913,W,0.07,21.72,111123,,,A*4D
14:05:03.821 $GPGGA,200502.200,3306.8027,N,09713.9913,W,1,06,1.56,236.6,M,-23.8,M,,*5D
14:05:03.861 $GPRMC,200502.200,A,3306.8027,N,09713.9913,W,0.07,21.72,111123,,,A*4E
14:05:03.936 $GPGGA,200502.300,3306.8027,N,09713.9913,W,1,06,1.56,236.6,M,-23.8,M,,*5C
14:05:03.942 $GPRMC,200502.300,A,3306.8027,N,09713.9913,W,0.07,21.72,111123,,,A*4F
14:05:04.015 $GPGGA,200502.400,3306.8027,N,09713.9913,W,1,06,1.56,236.6,M,-23.8,M,,*5B
14:05:04.057 $GPRMC,200502.400,A,3306.8027,N,09713.9913,W,0.06,21.72,111123,,,A*49
14:05:04.132 $GPGGA,200502.500,3306.8027,N,09713.9913,W,1,06,1.56,236.6,M,-23.8,M,,*5A
14:05:04.137 $GPRMC,200502.500,A,3306.8027,N,09713.9913,W,0.06,21.72,111123,,,A*48
14:05:04.247 $GPGGA,200502.600,3306.8027,N,09713.9912,W,1,06,1.56,236.6,M,-23.8,M,,*58
14:05:04.247 $GPRMC,200502.600,A,3306.8027,N,09713.9912,W,0.05,21.72,111123,,,A*49
14:05:04.318 $GPGGA,200502.700,3306.8027,N,09713.9912,W,1,06,1.56,236.6,M,-23.8,M,,*59
14:05:04.365 $GPRMC,200502.700,A,3306.8027,N,09713.9912,W,0.05,21.72,111123,,,A*48
14:05:04.432 $GPGGA,200502.800,3306.8027,N,09713.9912,W,1,06,1.56,236.5,M,-23.8,M,,*55
14:05:04.437 $GPRMC,200502.800,A,3306.8027,N,09713.9912,W,0.05,21.72,111123,,,A*47
14:05:04.509 $GPGGA,200502.900,3306.8027,N,09713.9912,W,1,06,1.56,236.5,M,-23.8,M,,*54
14:05:04.552 $GPRMC,200502.900,A,3306.8027,N,09713.9912,W,0.05,21.72,111123,,,A*46
14:05:04.624 $GPGGA,200503.000,3306.8027,N,09713.9912,W,1,06,1.56,236.5,M,-23.8,M,,*5C
14:05:04.662 $GPRMC,200503.000,A,3306.8027,N,09713.9912,W,0.05,21.72,111123,,,A*4E
14:05:04.739 $GPGGA,200503.100,3306.8027,N,09713.9912,W,1,06,1.56,236.5,M,-23.8,M,,*5D
14:05:04.748 $GPRMC,200503.100,A,3306.8027,N,09713.9912,W,0.06,21.72,111123,,,A*4C
14:05:04.818 $GPGGA,200503.200,3306.8027,N,09713.9912,W,1,06,1.56,236.5,M,-23.8,M,,*5E
14:05:04.859 $GPRMC,200503.200,A,3306.8027,N,09713.9912,W,0.07,21.72,111123,,,A*4E
14:05:04.933 $GPGGA,200503.300,3306.8027,N,09713.9912,W,1,06,1.56,236.5,M,-23.8,M,,*5F
14:05:04.938 $GPRMC,200503.300,A,3306.8027,N,09713.9912,W,0.08,21.72,111123,,,A*40
14:05:05.045 $GPGGA,200503.400,3306.8027,N,09713.9912,W,1,06,1.56,236.5,M,-23.8,M,,*58
14:05:05.052 $GPRMC,200503.400,A,3306.8027,N,09713.9912,W,0.09,21.72,111123,,,A*46
14:05:05.121 $GPGGA,200503.500,3306.8027,N,09713.9912,W,1,06,1.56,236.5,M,-23.8,M,,*59
14:05:05.162 $GPRMC,200503.500,A,3306.8027,N,09713.9912,W,0.11,21.72,111123,,,A*4E
14:05:05.235 $GPGGA,200503.600,3306.8027,N,09713.9912,W,1,06,1.56,236.5,M,-23.8,M,,*5A
14:05:05.242 $GPRMC,200503.600,A,3306.8027,N,09713.9912,W,0.13,21.72,111123,,,A*4F
14:05:05.312 $GPGGA,200503.700,3306.8027,N,09713.9912,W,1,06,1.56,236.5,M,-23.8,M,,*5B
14:05:05.354 $GPRMC,200503.700,A,3306.8027,N,09713.9912,W,0.21,21.72,111123,,,A*4F
14:05:05.428 $GPGGA,200503.800,3306.8027,N,09713.9912,W,1,06,1.56,236.5,M,-23.8,M,,*54
14:05:05.434 $GPRMC,200503.800,A,3306.8027,N,09713.9912,W,0.25,21.72,111123,,,A*44
14:05:05.543 $GPGGA,200503.900,3306.8027,N,09713.9912,W,1,06,1.56,236.5,M,-23.8,M,,*55
14:05:05.550 $GPRMC,200503.900,A,3306.8027,N,09713.9912,W,0.26,21.72,111123,,,A*46
14:05:05.621 $GPGGA,200504.000,3306.8027,N,09713.9912,W,1,06,1.56,236.5,M,-23.8,M,,*5B
14:05:05.661 $GPRMC,200504.000,A,3306.8027,N,09713.9912,W,0.29,21.72,111123,,,A*47
14:05:05.734 $GPGGA,200504.100,3306.8026,N,09713.9912,W,1,06,1.56,236.5,M,-23.8,M,,*5B
14:05:05.741 $GPRMC,200504.100,A,3306.8026,N,09713.9912,W,0.36,21.72,111123,,,A*49
14:05:05.811 $GPGGA,200504.200,3306.8026,N,09713.9912,W,1,06,1.56,236.5,M,-23.8,M,,*58
14:05:05.854 $GPRMC,200504.200,A,3306.8026,N,09713.9912,W,0.40,21.72,111123,,,A*4B
14:05:05.925 $GPGGA,200504.300,3306.8026,N,09713.9912,W,1,06,1.56,236.5,M,-23.8,M,,*59
14:05:05.965 $GPRMC,200504.300,A,3306.8026,N,09713.9912,W,0.53,21.72,111123,,,A*48
14:05:06.040 $GPGGA,200504.400,3306.8026,N,09713.9912,W,1,06,1.56,236.5,M,-23.8,M,,*5E
14:05:06.046 $GPRMC,200504.400,A,3306.8026,N,09713.9912,W,0.99,184.64,111123,,,A*70
14:05:06.121 $GPGGA,200504.500,3306.8026,N,09713.9912,W,1,06,1.56,236.5,M,-23.8,M,,*5F
14:05:06.161 $GPRMC,200504.500,A,3306.8026,N,09713.9912,W,1.24,183.35,111123,,,A*75
14:05:06.234 $GPGGA,200504.600,3306.8025,N,09713.9912,W,1,06,1.56,236.4,M,-23.8,M,,*5E
14:05:06.241 $GPRMC,200504.600,A,3306.8025,N,09713.9912,W,1.41,169.73,111123,,,A*70
14:05:06.348 $GPGGA,200504.700,3306.8025,N,09713.9912,W,1,06,1.56,236.4,M,-23.8,M,,*5F
14:05:06.354 $GPRMC,200504.700,A,3306.8025,N,09713.9912,W,1.01,179.45,111123,,,A*71
14:05:06.425 $GPGGA,200504.800,3306.8024,N,09713.9912,W,1,06,1.56,236.4,M,-23.8,M,,*51
14:05:06.466 $GPRMC,200504.800,A,3306.8024,N,09713.9912,W,1.04,182.39,111123,,,A*75
14:05:06.538 $GPGGA,200504.900,3306.8024,N,09713.9912,W,1,06,1.56,236.3,M,-23.8,M,,*57
14:05:06.545 $GPRMC,200504.900,A,3306.8024,N,09713.9912,W,1.08,178.79,111123,,,A*79
14:05:06.615 $GPGGA,200505.000,3306.8023,N,09713.9912,W,1,06,1.56,236.3,M,-23.8,M,,*58
14:05:06.658 $GPRMC,200505.000,A,3306.8023,N,09713.9912,W,1.11,178.52,111123,,,A*77
14:05:06.731 $GPGGA,200505.100,3306.8023,N,09713.9912,W,1,06,1.56,236.3,M,-23.8,M,,*59
14:05:06.770 $GPRMC,200505.100,A,3306.8023,N,09713.9912,W,1.16,185.12,111123,,,A*77
14:05:06.846 $GPGGA,200505.200,3306.8022,N,09713.9912,W,1,06,1.56,236.2,M,-23.8,M,,*5A
14:05:06.853 $GPRMC,200505.200,A,3306.8022,N,09713.9912,W,1.42,171.29,111123,,,A*77
14:05:06.925 $GPGGA,200505.300,3306.8022,N,09713.9912,W,1,06,1.56,236.2,M,-23.8,M,,*5B
14:05:06.965 $GPRMC,200505.300,A,3306.8022,N,09713.9912,W,1.39,178.60,111123,,,A*7E
14:05:07.038 $GPGGA,200505.400,3306.8021,N,09713.9912,W,1,06,1.56,236.1,M,-23.8,M,,*5C
14:05:07.044 $GPRMC,200505.400,A,3306.8021,N,09713.9912,W,1.58,167.32,111123,,,A*74
14:05:07.116 $GPGGA,200505.500,3306.8021,N,09713.9912,W,1,06,1.56,236.1,M,-23.8,M,,*5D
14:05:07.157 $GPRMC,200505.500,A,3306.8021,N,09713.9912,W,1.61,176.57,111123,,,A*7C
14:05:07.229 $GPGGA,200505.600,3306.8020,N,09713.9912,W,1,06,1.56,236.0,M,-23.8,M,,*5E
14:05:07.269 $GPRMC,200505.600,A,3306.8020,N,09713.9912,W,2.00,170.11,111123,,,A*7E
14:05:07.344 $GPGGA,200505.700,3306.8019,N,09713.9912,W,1,06,1.56,236.0,M,-23.8,M,,*55
14:05:07.351 $GPRMC,200505.700,A,3306.8019,N,09713.9912,W,2.00,172.69,111123,,,A*78
14:05:07.422 $GPGGA,200505.800,3306.8019,N,09713.9912,W,1,06,1.56,235.9,M,-23.8,M,,*50
14:05:07.462 $GPRMC,200505.800,A,3306.8019,N,09713.9912,W,2.06,172.87,111123,,,A*71
14:05:07.536 $GPGGA,200505.900,3306.8018,N,09713.9912,W,1,06,1.56,235.9,M,-23.8,M,,*50
14:05:07.542 $GPRMC,200505.900,A,3306.8018,N,09713.9912,W,2.02,167.24,111123,,,A*78
14:05:07.615 $GPGGA,200506.000,3306.8018,N,09713.9912,W,1,06,1.56,235.8,M,-23.8,M,,*5B
14:05:07.657 $GPRMC,200506.000,A,3306.8018,N,09713.9912,W,1.78,171.21,111123,,,A*7E
14:05:07.729 $GPGGA,200506.100,3306.8017,N,09713.9912,W,1,06,1.56,235.8,M,-23.8,M,,*55
14:05:07.768 $GPRMC,200506.100,A,3306.8017,N,09713.9912,W,1.75,166.96,111123,,,A*77
14:05:07.841 $GPGGA,200506.200,3306.8016,N,09713.9912,W,1,06,1.56,235.7,M,-23.8,M,,*58
14:05:07.848 $GPRMC,200506.200,A,3306.8016,N,09713.9912,W,1.76,170.11,111123,,,A*7E
14:05:07.918 $GPGGA,200506.300,3306.8016,N,09713.9912,W,1,06,1.56,235.6,M,-23.8,M,,*58
14:05:07.960 $GPRMC,200506.300,A,3306.8016,N,09713.9912,W,1.71,178.52,111123,,,A*77
14:05:08.033 $GPGGA,200506.400,3306.8015,N,09713.9912,W,1,06,1.56,235.6,M,-23.8,M,,*5C
14:05:08.040 $GPRMC,200506.400,A,3306.8015,N,09713.9912,W,1.97,176.44,111123,,,A*72
14:05:08.148 $GPGGA,200506.500,3306.8015,N,09713.9912,W,1,06,1.56,235.5,M,-23.8,M,,*5E
14:05:08.155 $GPRMC,200506.500,A,3306.8015,N,09713.9912,W,2.35,172.38,111123,,,A*77
14:05:08.228 $GPGGA,200506.600,3306.8014,N,09713.9912,W,1,06,1.56,235.5,M,-23.8,M,,*5C
14:05:08.268 $GPRMC,200506.600,A,3306.8014,N,09713.9912,W,2.31,166.65,111123,,,A*7C
14:05:08.341 $GPGGA,200506.700,3306.8013,N,09713.9912,W,1,06,1.56,235.4,M,-23.8,M,,*5B
14:05:08.348 $GPRMC,200506.700,A,3306.8013,N,09713.9912,W,2.24,170.93,111123,,,A*70
14:05:08.418 $GPGGA,200506.800,3306.8013,N,09713.9912,W,1,06,1.56,235.4,M,-23.8,M,,*54
14:05:08.460 $GPRMC,200506.800,A,3306.8013,N,09713.9912,W,2.06,170.77,111123,,,A*75
14:05:08.532 $GPGGA,200506.900,3306.8012,N,09713.9912,W,1,06,1.56,235.3,M,-23.8,M,,*53
14:05:08.538 $GPRMC,200506.900,A,3306.8012,N,09713.9912,W,2.03,174.13,111123,,,A*76
14:05:08.647 $GPGGA,200507.000,3306.8012,N,09713.9912,W,1,06,1.56,235.3,M,-23.8,M,,*5B
14:05:08.654 $GPRMC,200507.000,A,3306.8012,N,09713.9912,W,2.00,168.99,111123,,,A*72
14:05:08.726 $GPGGA,200507.100,3306.8012,N,09713.9911,W,1,06,1.56,235.3,M,-23.8,M,,*59
14:05:08.733 $GPRMC,200507.100,A,3306.8012,N,09713.9911,W,2.03,164.16,111123,,,A*78
14:05:08.842 $GPGGA,200507.200,3306.8011,N,09713.9911,W,1,06,1.56,235.3,M,-23.8,M,,*59
14:05:08.848 $GPRMC,200507.200,A,3306.8011,N,09713.9911,W,2.22,173.61,111123,,,A*7D
14:05:08.919 $GPGGA,200507.300,3306.8010,N,09713.9911,W,1,06,1.56,235.2,M,-23.8,M,,*58
14:05:08.959 $GPRMC,200507.300,A,3306.8010,N,09713.9911,W,2.23,177.22,111123,,,A*7F
14:05:09.033 $GPGGA,200507.400,3306.8010,N,09713.9911,W,1,06,1.56,235.2,M,-23.8,M,,*5F
14:05:09.039 $GPRMC,200507.400,A,3306.8010,N,09713.9911,W,1.96,177.70,111123,,,A*72
14:05:09.147 $GPGGA,200507.500,3306.8009,N,09713.9911,W,1,06,1.56,235.2,M,-23.8,M,,*56
14:05:09.153 $GPRMC,200507.500,A,3306.8009,N,09713.9911,W,1.96,183.60,111123,,,A*71
14:05:09.223 $GPGGA,200507.600,3306.8009,N,09713.9911,W,1,06,1.56,235.1,M,-23.8,M,,*56
14:05:09.264 $GPRMC,200507.600,A,3306.8009,N,09713.9911,W,2.15,180.53,111123,,,A*79
14:05:09.339 $GPGGA,200507.700,3306.8008,N,09713.9911,W,1,06,1.56,235.1,M,-23.8,M,,*56
14:05:09.346 $GPRMC,200507.700,A,3306.8008,N,09713.9911,W,2.16,181.59,111123,,,A*71
14:05:09.416 $GPGGA,200507.800,3306.8008,N,09713.9911,W,1,06,1.56,235.1,M,-23.8,M,,*59
14:05:09.459 $GPRMC,200507.800,A,3306.8008,N,09713.9911,W,2.19,178.09,111123,,,A*72
14:05:09.533 $GPGGA,200507.900,3306.8007,N,09713.9911,W,1,06,1.56,235.0,M,-23.8,M,,*56
14:05:09.540 $GPRMC,200507.900,A,3306.8007,N,09713.9911,W,2.00,174.81,111123,,,A*78
14:05:09.647 $GPGGA,200508.000,3306.8007,N,09713.9911,W,1,06,1.56,235.0,M,-23.8,M,,*50
14:05:09.653 $GPRMC,200508.000,A,3306.8007,N,09713.9911,W,1.99,175.13,111123,,,A*77
14:05:09.724 $GPGGA,200508.100,3306.8006,N,09713.9911,W,1,06,1.56,235.0,M,-23.8,M,,*50
14:05:09.764 $GPRMC,200508.100,A,3306.8006,N,09713.9911,W,1.94,182.85,111123,,,A*7D
14:05:09.837 $GPGGA,200508.200,3306.8006,N,09713.9911,W,1,06,1.56,234.9,M,-23.8,M,,*5B
14:05:09.844 $GPRMC,200508.200,A,3306.8006,N,09713.9911,W,1.93,173.17,111123,,,A*7C
14:05:09.952 $GPGGA,200508.300,3306.8006,N,09713.9911,W,1,06,1.56,234.9,M,-23.8,M,,*5A
14:05:09.958 $GPRMC,200508.300,A,3306.8006,N,09713.9911,W,1.73,175.95,111123,,,A*7F
14:05:10.031 $GPGGA,200508.400,3306.8005,N,09713.9911,W,1,06,1.56,234.8,M,-23.8,M,,*5F
14:05:10.037 $GPRMC,200508.400,A,3306.8005,N,09713.9911,W,2.08,174.33,111123,,,A*79
14:05:10.146 $GPGGA,200508.500,3306.8004,N,09713.9911,W,1,06,1.56,234.8,M,-23.8,M,,*5F
14:05:10.153 $GPRMC,200508.500,A,3306.8004,N,09713.9911,W,2.03,177.53,111123,,,A*77
14:05:10.224 $GPGGA,200508.600,3306.8004,N,09713.9911,W,1,06,1.56,234.8,M,-23.8,M,,*5C
14:05:10.265 $GPRMC,200508.600,A,3306.8004,N,09713.9911,W,2.00,175.02,111123,,,A*71
14:05:10.338 $GPGGA,200508.700,3306.8003,N,09713.9911,W,1,06,1.56,234.7,M,-23.8,M,,*55
14:05:10.344 $GPRMC,200508.700,A,3306.8003,N,09713.9911,W,1.93,182.08,111123,,,A*7C
14:05:10.417 $GPGGA,200508.800,3306.8003,N,09713.9911,W,1,06,1.56,234.7,M,-23.8,M,,*5A
14:05:10.459 $GPRMC,200508.800,A,3306.8003,N,09713.9911,W,1.88,185.70,111123,,,A*71
14:05:10.534 $GPGGA,200508.900,3306.8002,N,09713.9911,W,1,06,1.56,234.7,M,-23.8,M,,*5A
14:05:10.538 $GPRMC,200508.900,A,3306.8002,N,09713.9911,W,1.90,181.45,111123,,,A*7A
14:05:10.647 $GPGGA,200509.000,3306.8002,N,09713.9911,W,1,06,1.56,234.6,M,-23.8,M,,*53
14:05:10.654 $GPRMC,200509.000,A,3306.8002,N,09713.9911,W,2.12,177.01,111123,,,A*72
14:05:10.725 $GPGGA,200509.100,3306.8001,N,09713.9911,W,1,06,1.56,234.6,M,-23.8,M,,*51
14:05:10.766 $GPRMC,200509.100,A,3306.8001,N,09713.9911,W,2.07,179.06,111123,,,A*7D
14:05:10.839 $GPGGA,200509.200,3306.8001,N,09713.9911,W,1,06,1.56,234.6,M,-23.8,M,,*52
14:05:10.846 $GPRMC,200509.200,A,3306.8001,N,09713.9911,W,1.87,172.47,111123,,,A*7B
14:05:10.916 $GPGGA,200509.300,3306.8000,N,09713.9911,W,1,06,1.56,234.6,M,-23.8,M,,*52
14:05:10.959 $GPRMC,200509.300,A,3306.8000,N,09713.9911,W,1.88,168.46,111123,,,A*7E
14:05:11.030 $GPGGA,200509.400,3306.8000,N,09713.9911,W,1,06,1.56,234.5,M,-23.8,M,,*56
14:05:11.069 $GPRMC,200509.400,A,3306.8000,N,09713.9911,W,1.90,174.82,111123,,,A*75
14:05:11.146 $GPGGA,200509.500,3306.7999,N,09713.9911,W,1,06,1.56,234.5,M,-23.8,M,,*51
14:05:11.154 $GPRMC,200509.500,A,3306.7999,N,09713.9911,W,1.92,167.45,111123,,,A*79
14:05:11.224 $GPGGA,200509.600,3306.7999,N,09713.9911,W,1,06,1.56,234.5,M,-23.8,M,,*52
14:05:11.265 $GPRMC,200509.600,A,3306.7999,N,09713.9911,W,1.98,165.85,111123,,,A*7E
14:05:11.339 $GPGGA,200509.700,3306.7999,N,09713.9910,W,1,06,1.56,234.5,M,-23.8,M,,*52
14:05:11.346 $GPRMC,200509.700,A,3306.7999,N,09713.9910,W,2.00,166.00,111123,,,A*72
14:05:11.415 $GPGGA,200509.800,3306.7998,N,09713.9910,W,1,06,1.56,234.5,M,-23.8,M,,*5C
14:05:11.458 $GPRMC,200509.800,A,3306.7998,N,09713.9910,W,1.99,170.65,111123,,,A*7B
14:05:11.529 $GPGGA,200509.900,3306.7998,N,09713.9910,W,1,06,1.56,234.5,M,-23.8,M,,*5D
14:05:11.568 $GPRMC,200509.900,A,3306.7998,N,09713.9910,W,1.78,177.71,111123,,,A*77
14:05:11.644 $GPGGA,200510.000,3306.7997,N,09713.9910,W,1,06,1.56,234.4,M,-23.8,M,,*52
14:05:11.650 $GPRMC,200510.000,A,3306.7997,N,09713.9910,W,1.84,176.88,111123,,,A*7D
14:05:11.721 $GPGGA,200510.100,3306.7997,N,09713.9910,W,1,06,1.56,234.4,M,-23.8,M,,*53
14:05:11.762 $GPRMC,200510.100,A,3306.7997,N,09713.9910,W,1.79,179.15,111123,,,A*75
14:05:11.837 $GPGGA,200510.200,3306.7996,N,09713.9910,W,1,06,1.56,234.4,M,-23.8,M,,*51
14:05:11.843 $GPRMC,200510.200,A,3306.7996,N,09713.9910,W,2.04,180.99,111123,,,A*7C
14:05:11.914 $GPGGA,200510.300,3306.7996,N,09713.9910,W,1,06,1.56,234.4,M,-23.8,M,,*50
14:05:11.957 $GPRMC,200510.300,A,3306.7996,N,09713.9910,W,2.07,181.81,111123,,,A*76
14:05:12.029 $GPGGA,200510.400,3306.7995,N,09713.9910,W,1,06,1.56,234.3,M,-23.8,M,,*53
14:05:12.068 $GPRMC,200510.400,A,3306.7995,N,09713.9910,W,2.10,182.27,111123,,,A*7B
14:05:12.144 $GPGGA,200510.500,3306.7995,N,09713.9910,W,1,06,1.56,234.3,M,-23.8,M,,*52
14:05:12.150 $GPRMC,200510.500,A,3306.7995,N,09713.9910,W,1.87,177.52,111123,,,A*7F
14:05:12.221 $GPGGA,200510.600,3306.7994,N,09713.9910,W,1,06,1.56,234.3,M,-23.8,M,,*50
14:05:12.264 $GPRMC,200510.600,A,3306.7994,N,09713.9910,W,1.81,180.50,111123,,,A*71
14:05:12.339 $GPGGA,200510.700,3306.7994,N,09713.9910,W,1,06,1.56,234.3,M,-23.8,M,,*51
14:05:12.343 $GPRMC,200510.700,A,3306.7994,N,09713.9910,W,1.78,178.07,111123,,,A*73
14:05:12.414 $GPGGA,200510.800,3306.7994,N,09713.9910,W,1,06,1.56,234.3,M,-23.8,M,,*5E
14:05:12.459 $GPRMC,200510.800,A,3306.7994,N,09713.9910,W,1.83,179.11,111123,,,A*7E
14:05:12.530 $GPGGA,200510.900,3306.7993,N,09713.9910,W,1,06,1.56,234.2,M,-23.8,M,,*59
14:05:12.569 $GPRMC,200510.900,A,3306.7993,N,09713.9910,W,2.15,178.89,111123,,,A*74
14:05:12.644 $GPGGA,200511.000,3306.7993,N,09713.9910,W,1,06,1.56,234.2,M,-23.8,M,,*51
14:05:12.651 $GPRMC,200511.000,A,3306.7993,N,09713.9910,W,2.10,176.24,111123,,,A*70
14:05:12.721 $GPGGA,200511.100,3306.7992,N,09713.9909,W,1,06,1.56,234.2,M,-23.8,M,,*59
14:05:12.762 $GPRMC,200511.100,A,3306.7992,N,09713.9909,W,2.08,180.60,111123,,,A*78
14:05:12.835 $GPGGA,200511.200,3306.7992,N,09713.9909,W,1,06,1.56,234.2,M,-23.8,M,,*5A
14:05:12.841 $GPRMC,200511.200,A,3306.7992,N,09713.9909,W,1.72,182.86,111123,,,A*7F
14:05:12.914 $GPGGA,200511.300,3306.7991,N,09713.9909,W,1,06,1.56,234.2,M,-23.8,M,,*58
14:05:12.957 $GPRMC,200511.300,A,3306.7991,N,09713.9909,W,1.56,185.93,111123,,,A*78
14:05:13.028 $GPGGA,200511.400,3306.7991,N,09713.9909,W,1,06,1.56,234.1,M,-23.8,M,,*5C
14:05:13.069 $GPRMC,200511.400,A,3306.7991,N,09713.9909,W,1.77,185.87,111123,,,A*79
14:05:13.144 $GPGGA,200511.500,3306.7990,N,09713.9909,W,1,06,1.56,234.1,M,-23.8,M,,*5C
14:05:13.151 $GPRMC,200511.500,A,3306.7990,N,09713.9909,W,1.94,184.39,111123,,,A*70
14:05:13.222 $GPGGA,200511.600,3306.7990,N,09713.9909,W,1,06,1.56,234.1,M,-23.8,M,,*5F
14:05:13.263 $GPRMC,200511.600,A,3306.7990,N,09713.9909,W,1.94,185.47,111123,,,A*7B
14:05:13.341 $GPGGA,200511.700,3306.7989,N,09713.9909,W,1,06,1.56,234.1,M,-23.8,M,,*56
14:05:13.343 $GPRMC,200511.700,A,3306.7989,N,09713.9909,W,1.71,182.69,111123,,,A*72
14:05:13.416 $GPGGA,200511.800,3306.7989,N,09713.9909,W,1,06,1.56,234.1,M,-23.8,M,,*59
14:05:13.460 $GPRMC,200511.800,A,3306.7989,N,09713.9909,W,1.64,185.35,111123,,,A*77
14:05:13.532 $GPGGA,200511.900,3306.7989,N,09713.9909,W,1,06,1.56,234.1,M,-23.8,M,,*58
14:05:13.538 $GPRMC,200511.900,A,3306.7989,N,09713.9909,W,1.59,187.74,111123,,,A*7F
14:05:13.647 $GPGGA,200512.000,3306.7988,N,09713.9909,W,1,06,1.56,234.0,M,-23.8,M,,*52
14:05:13.654 $GPRMC,200512.000,A,3306.7988,N,09713.9909,W,1.54,178.28,111123,,,A*70
14:05:13.723 $GPGGA,200512.100,3306.7988,N,09713.9909,W,1,06,1.56,234.0,M,-23.8,M,,*53
14:05:13.766 $GPRMC,200512.100,A,3306.7988,N,09713.9909,W,1.59,179.89,111123,,,A*76
14:05:13.837 $GPGGA,200512.200,3306.7987,N,09713.9909,W,1,06,1.56,234.0,M,-23.8,M,,*5F
14:05:13.844 $GPRMC,200512.200,A,3306.7987,N,09713.9909,W,1.76,179.22,111123,,,A*76
14:05:13.952 $GPGGA,200512.300,3306.7987,N,09713.9909,W,1,06,1.56,234.0,M,-23.8,M,,*5E
14:05:13.957 $GPRMC,200512.300,A,3306.7987,N,09713.9909,W,2.04,181.59,111123,,,A*7A
14:05:14.028 $GPGGA,200512.400,3306.7987,N,09713.9910,W,1,06,1.56,234.0,M,-23.8,M,,*51
14:05:14.035 $GPRMC,200512.400,A,3306.7987,N,09713.9910,W,1.81,186.60,111123,,,A*76
14:05:14.146 $GPGGA,200512.500,3306.7986,N,09713.9909,W,1,06,1.56,234.0,M,-23.8,M,,*59
14:05:14.153 $GPRMC,200512.500,A,3306.7986,N,09713.9909,W,1.66,181.95,111123,,,A*7A
14:05:14.222 $GPGGA,200512.600,3306.7986,N,09713.9909,W,1,06,1.56,234.0,M,-23.8,M,,*5A
14:05:14.262 $GPRMC,200512.600,A,3306.7986,N,09713.9909,W,1.59,179.59,111123,,,A*72
14:05:14.336 $GPGGA,200512.700,3306.7985,N,09713.9909,W,1,06,1.56,234.0,M,-23.8,M,,*58
14:05:14.343 $GPRMC,200512.700,A,3306.7985,N,09713.9909,W,1.64,182.58,111123,,,A*7B
14:05:14.451 $GPGGA,200512.800,3306.7985,N,09713.9909,W,1,06,1.56,233.9,M,-23.8,M,,*59
14:05:14.457 $GPRMC,200512.800,A,3306.7985,N,09713.9909,W,1.59,179.97,111123,,,A*7D
14:05:14.528 $GPGGA,200512.900,3306.7984,N,09713.9909,W,1,06,1.56,233.9,M,-23.8,M,,*59
14:05:14.568 $GPRMC,200512.900,A,3306.7984,N,09713.9909,W,1.90,178.45,111123,,,A*76
14:05:14.644 $GPGGA,200513.000,3306.7984,N,09713.9909,W,1,06,1.56,233.9,M,-23.8,M,,*51
14:05:14.651 $GPRMC,200513.000,A,3306.7984,N,09713.9909,W,1.92,177.87,111123,,,A*7D
14:05:14.722 $GPGGA,200513.100,3306.7983,N,09713.9909,W,1,06,1.56,233.9,M,-23.8,M,,*57
14:05:14.764 $GPRMC,200513.100,A,3306.7983,N,09713.9909,W,1.85,174.07,111123,,,A*76
14:05:14.842 $GPGGA,200513.200,3306.7983,N,09713.9909,W,1,06,1.56,233.9,M,-23.8,M,,*54
14:05:14.845 $GPRMC,200513.200,A,3306.7983,N,09713.9909,W,1.63,171.21,111123,,,A*7C
14:05:14.953 $GPGGA,200513.300,3306.7983,N,09713.9909,W,1,06,1.56,233.9,M,-23.8,M,,*55
14:05:14.959 $GPRMC,200513.300,A,3306.7983,N,09713.9909,W,1.58,175.84,111123,,,A*7E
14:05:15.029 $GPGGA,200513.400,3306.7982,N,09713.9909,W,1,06,1.56,233.8,M,-23.8,M,,*52
14:05:15.070 $GPRMC,200513.400,A,3306.7982,N,09713.9909,W,1.56,171.76,111123,,,A*7F
14:05:15.146 $GPGGA,200513.500,3306.7982,N,09713.9909,W,1,06,1.56,233.8,M,-23.8,M,,*53
14:05:15.153 $GPRMC,200513.500,A,3306.7982,N,09713.9909,W,1.57,178.40,111123,,,A*73
14:05:15.223 $GPGGA,200513.600,3306.7982,N,09713.9909,W,1,06,1.56,233.8,M,-23.8,M,,*50
14:05:15.266 $GPRMC,200513.600,A,3306.7982,N,09713.9909,W,1.56,168.77,111123,,,A*74
14:05:15.339 $GPGGA,200513.700,3306.7981,N,09713.9909,W,1,06,1.56,233.8,M,-23.8,M,,*52
14:05:15.346 $GPRMC,200513.700,A,3306.7981,N,09713.9909,W,1.63,175.26,111123,,,A*78
14:05:15.416 $GPGGA,200513.800,3306.7981,N,09713.9909,W,1,06,1.56,233.8,M,-23.8,M,,*5D
14:05:15.459 $GPRMC,200513.800,A,3306.7981,N,09713.9909,W,1.58,162.72,111123,,,A*78
14:05:15.531 $GPGGA,200513.900,3306.7980,N,09713.9909,W,1,06,1.56,233.7,M,-23.8,M,,*52
14:05:15.570 $GPRMC,200513.900,A,3306.7980,N,09713.9909,W,1.39,171.78,111123,,,A*77
14:05:15.610 $GPGGA,200514.000,3306.7980,N,09713.9909,W,1,06,1.56,233.7,M,-23.8,M,,*5C
14:05:15.655 $GPRMC,200514.000,A,3306.7980,N,09713.9909,W,1.05,183.07,111123,,,A*73
14:05:15.724 $GPGGA,200514.100,3306.7980,N,09713.9909,W,1,06,1.56,233.7,M,-23.8,M,,*5D
14:05:15.764 $GPRMC,200514.100,A,3306.7980,N,09713.9909,W,1.22,185.46,111123,,,A*74
14:05:15.841 $GPGGA,200514.200,3306.7979,N,09713.9909,W,1,06,1.56,233.7,M,-23.8,M,,*58
14:05:15.847 $GPRMC,200514.200,A,3306.7979,N,09713.9909,W,1.14,186.41,111123,,,A*70
14:05:15.917 $GPGGA,200514.300,3306.7979,N,09713.9909,W,1,06,1.56,233.7,M,-23.8,M,,*59
14:05:15.960 $GPRMC,200514.300,A,3306.7979,N,09713.9909,W,1.13,187.88,111123,,,A*72
14:05:16.032 $GPGGA,200514.400,3306.7979,N,09713.9910,W,1,06,1.56,233.7,M,-23.8,M,,*56
14:05:16.039 $GPRMC,200514.400,A,3306.7979,N,09713.9910,W,1.05,190.91,111123,,,A*74
14:05:16.148 $GPGGA,200514.500,3306.7979,N,09713.9910,W,1,06,1.56,233.7,M,-23.8,M,,*57
14:05:16.154 $GPRMC,200514.500,A,3306.7979,N,09713.9910,W,1.01,193.91,111123,,,A*72
14:05:16.225 $GPGGA,200514.600,3306.7978,N,09713.9910,W,1,06,1.56,233.7,M,-23.8,M,,*55
14:05:16.266 $GPRMC,200514.600,A,3306.7978,N,09713.9910,W,0.97,200.23,111123,,,A*7E
14:05:16.342 $GPGGA,200514.700,3306.7978,N,09713.9910,W,1,06,1.56,233.7,M,-23.8,M,,*54
14:05:16.347 $GPRMC,200514.700,A,3306.7978,N,09713.9910,W,0.80,220.82,111123,,,A*70
14:05:16.418 $GPGGA,200514.800,3306.7978,N,09713.9910,W,1,06,1.56,233.6,M,-23.8,M,,*5A
14:05:16.459 $GPRMC,200514.800,A,3306.7978,N,09713.9910,W,0.79,239.79,111123,,,A*75
14:05:16.532 $GPGGA,200514.900,3306.7978,N,09713.9911,W,1,06,1.56,233.6,M,-23.8,M,,*5A
14:05:16.540 $GPRMC,200514.900,A,3306.7978,N,09713.9911,W,0.75,248.35,111123,,,A*77
14:05:16.610 $GPGGA,200515.000,3306.7978,N,09713.9911,W,1,06,1.56,233.6,M,-23.8,M,,*52
14:05:16.654 $GPRMC,200515.000,A,3306.7978,N,09713.9911,W,0.68,252.71,111123,,,A*78
14:05:16.725 $GPGGA,200515.100,3306.7978,N,09713.9911,W,1,06,1.56,233.6,M,-23.8,M,,*53
14:05:16.765 $GPRMC,200515.100,A,3306.7978,N,09713.9911,W,0.61,252.71,111123,,,A*70
14:05:16.841 $GPGGA,200515.200,3306.7978,N,09713.9911,W,1,06,1.56,233.6,M,-23.8,M,,*50
14:05:16.847 $GPRMC,200515.200,A,3306.7978,N,09713.9911,W,0.58,252.71,111123,,,A*79
14:05:16.919 $GPGGA,200515.300,3306.7978,N,09713.9912,W,1,06,1.56,233.6,M,-23.8,M,,*52
14:05:16.960 $GPRMC,200515.300,A,3306.7978,N,09713.9912,W,0.55,271.95,111123,,,A*7D
14:05:17.033 $GPGGA,200515.400,3306.7978,N,09713.9912,W,1,06,1.56,233.6,M,-23.8,M,,*55
14:05:17.040 $GPRMC,200515.400,A,3306.7978,N,09713.9912,W,0.56,272.42,111123,,,A*70
14:05:17.111 $GPGGA,200515.500,3306.7979,N,09713.9913,W,1,06,1.56,233.6,M,-23.8,M,,*54
14:05:17.153 $GPRMC,200515.500,A,3306.7979,N,09713.9913,W,0.81,276.43,111123,,,A*7E
14:05:17.224 $GPGGA,200515.600,3306.7979,N,09713.9913,W,1,06,1.56,233.6,M,-23.8,M,,*57
14:05:17.263 $GPRMC,200515.600,A,3306.7979,N,09713.9913,W,1.11,267.58,111123,,,A*7F
14:05:17.337 $GPGGA,200515.700,3306.7979,N,09713.9914,W,1,06,1.56,233.6,M,-23.8,M,,*51
14:05:17.344 $GPRMC,200515.700,A,3306.7979,N,09713.9914,W,1.59,262.28,111123,,,A*77
14:05:17.416 $GPGGA,200515.800,3306.7979,N,09713.9914,W,1,06,1.56,233.6,M,-23.8,M,,*5E
14:05:17.457 $GPRMC,200515.800,A,3306.7979,N,09713.9914,W,1.76,267.07,111123,,,A*7D
14:05:17.531 $GPGGA,200515.900,3306.7979,N,09713.9915,W,1,06,1.56,233.6,M,-23.8,M,,*5E
14:05:17.577 $GPRMC,200515.900,A,3306.7979,N,09713.9915,W,1.77,266.08,111123,,,A*72
14:05:17.646 $GPGGA,200516.000,3306.7979,N,09713.9916,W,1,06,1.56,233.5,M,-23.8,M,,*54
14:05:17.653 $GPRMC,200516.000,A,3306.7979,N,09713.9916,W,2.00,271.00,111123,,,A*76
14:05:17.723 $GPGGA,200516.100,3306.7979,N,09713.9916,W,1,06,1.56,233.5,M,-23.8,M,,*55
14:05:17.768 $GPRMC,200516.100,A,3306.7979,N,09713.9916,W,2.16,276.57,111123,,,A*75
14:05:17.838 $GPGGA,200516.200,3306.7979,N,09713.9917,W,1,06,1.56,233.5,M,-23.8,M,,*57
14:05:17.845 $GPRMC,200516.200,A,3306.7979,N,09713.9917,W,2.44,278.86,111123,,,A*72
14:05:17.917 $GPGGA,200516.300,3306.7979,N,09713.9918,W,1,06,1.56,233.5,M,-23.8,M,,*59
14:05:17.963 $GPRMC,200516.300,A,3306.7979,N,09713.9918,W,2.24,274.63,111123,,,A*7D
14:05:18.032 $GPGGA,200516.400,3306.7979,N,09713.9919,W,1,06,1.56,233.5,M,-23.8,M,,*5F
14:05:18.072 $GPRMC,200516.400,A,3306.7979,N,09713.9919,W,2.20,270.17,111123,,,A*78
14:05:18.148 $GPGGA,200516.500,3306.7979,N,09713.9920,W,1,06,1.56,233.5,M,-23.8,M,,*54
14:05:18.155 $GPRMC,200516.500,A,3306.7979,N,09713.9920,W,2.22,266.57,111123,,,A*72
14:05:18.224 $GPGGA,200516.600,3306.7979,N,09713.9920,W,1,06,1.56,233.5,M,-23.8,M,,*57
14:05:18.265 $GPRMC,200516.600,A,3306.7979,N,09713.9920,W,1.91,269.74,111123,,,A*74
14:05:18.338 $GPGGA,200516.700,3306.7979,N,09713.9921,W,1,06,1.56,233.5,M,-23.8,M,,*57
14:05:18.345 $GPRMC,200516.700,A,3306.7979,N,09713.9921,W,1.98,277.46,111123,,,A*73
14:05:18.416 $GPGGA,200516.800,3306.7979,N,09713.9922,W,1,06,1.56,233.4,M,-23.8,M,,*5A
14:05:18.460 $GPRMC,200516.800,A,3306.7979,N,09713.9922,W,2.36,279.73,111123,,,A*70
14:05:18.531 $GPGGA,200516.900,3306.7979,N,09713.9922,W,1,06,1.56,233.4,M,-23.8,M,,*5B
14:05:18.572 $GPRMC,200516.900,A,3306.7979,N,09713.9922,W,2.19,275.12,111123,,,A*77
14:05:18.647 $GPGGA,200517.000,3306.7980,N,09713.9923,W,1,06,1.56,233.4,M,-23.8,M,,*54
14:05:18.654 $GPRMC,200517.000,A,3306.7980,N,09713.9923,W,2.25,274.44,111123,,,A*75
14:05:18.724 $GPGGA,200517.100,3306.7979,N,09713.9924,W,1,06,1.56,233.4,M,-23.8,M,,*54
14:05:18.766 $GPRMC,200517.100,A,3306.7979,N,09713.9924,W,1.91,258.22,111123,,,A*77
14:05:18.840 $GPGGA,200517.200,3306.7979,N,09713.9925,W,1,06,1.56,233.4,M,-23.8,M,,*56
14:05:18.846 $GPRMC,200517.200,A,3306.7979,N,09713.9925,W,1.97,262.27,111123,,,A*7F
14:05:18.917 $GPGGA,200517.300,3306.7979,N,09713.9925,W,1,06,1.56,233.4,M,-23.8,M,,*57
14:05:18.959 $GPRMC,200517.300,A,3306.7979,N,09713.9925,W,1.98,269.01,111123,,,A*7E
14:05:19.032 $GPGGA,200517.400,3306.7979,N,09713.9926,W,1,06,1.56,233.4,M,-23.8,M,,*53
14:05:19.071 $GPRMC,200517.400,A,3306.7979,N,09713.9926,W,2.04,268.21,111123,,,A*7F
14:05:19.145 $GPGGA,200517.500,3306.7979,N,09713.9927,W,1,06,1.56,233.4,M,-23.8,M,,*53
14:05:19.151 $GPRMC,200517.500,A,3306.7979,N,09713.9927,W,2.10,268.33,111123,,,A*79
14:05:19.224 $GPGGA,200517.600,3306.7979,N,09713.9927,W,1,06,1.56,233.4,M,-23.8,M,,*50
14:05:19.264 $GPRMC,200517.600,A,3306.7979,N,09713.9927,W,2.17,264.60,111123,,,A*77
14:05:19.339 $GPGGA,200517.700,3306.7979,N,09713.9928,W,1,06,1.56,233.4,M,-23.8,M,,*5E
14:05:19.345 $GPRMC,200517.700,A,3306.7979,N,09713.9928,W,2.19,264.73,111123,,,A*75
14:05:19.416 $GPGGA,200517.800,3306.7979,N,09713.9929,W,1,06,1.56,233.4,M,-23.8,M,,*50
14:05:19.457 $GPRMC,200517.800,A,3306.7979,N,09713.9929,W,1.92,265.27,111123,,,A*7B
14:05:19.529 $GPGGA,200517.900,3306.7979,N,09713.9929,W,1,06,1.56,233.4,M,-23.8,M,,*51
14:05:19.537 $GPRMC,200517.900,A,3306.7979,N,09713.9929,W,1.92,276.19,111123,,,A*75
14:05:19.644 $GPGGA,200518.000,3306.7980,N,09713.9930,W,1,06,1.56,233.4,M,-23.8,M,,*59
14:05:19.650 $GPRMC,200518.000,A,3306.7980,N,09713.9930,W,1.89,273.77,111123,,,A*7A
14:05:19.721 $GPGGA,200518.100,3306.7980,N,09713.9930,W,1,06,1.56,233.3,M,-23.8,M,,*5F
14:05:19.767 $GPRMC,200518.100,A,3306.7980,N,09713.9930,W,1.90,274.98,111123,,,A*75
14:05:19.836 $GPGGA,200518.200,3306.7980,N,09713.9931,W,1,06,1.56,233.3,M,-23.8,M,,*5D
14:05:19.843 $GPRMC,200518.200,A,3306.7980,N,09713.9931,W,1.97,276.32,111123,,,A*72
14:05:19.917 $GPGGA,200518.300,3306.7980,N,09713.9932,W,1,06,1.56,233.3,M,-23.8,M,,*5F
14:05:19.957 $GPRMC,200518.300,A,3306.7980,N,09713.9932,W,2.00,276.22,111123,,,A*7C
14:05:20.030 $GPGGA,200518.400,3306.7980,N,09713.9932,W,1,06,1.56,233.3,M,-23.8,M,,*58
14:05:20.037 $GPRMC,200518.400,A,3306.7980,N,09713.9932,W,2.04,274.54,111123,,,A*7C
14:05:20.144 $GPGGA,200518.500,3306.7980,N,09713.9933,W,1,06,1.56,233.3,M,-23.8,M,,*58
14:05:20.151 $GPRMC,200518.500,A,3306.7980,N,09713.9933,W,2.06,278.05,111123,,,A*76
14:05:20.220 $GPGGA,200518.600,3306.7980,N,09713.9933,W,1,06,1.56,233.3,M,-23.8,M,,*5B
14:05:20.260 $GPRMC,200518.600,A,3306.7980,N,09713.9933,W,2.05,272.07,111123,,,A*7E
14:05:20.334 $GPGGA,200518.700,3306.7980,N,09713.9934,W,1,06,1.56,233.3,M,-23.8,M,,*5D
14:05:20.341 $GPRMC,200518.700,A,3306.7980,N,09713.9934,W,2.07,272.59,111123,,,A*71
14:05:20.411 $GPGGA,200518.800,3306.7980,N,09713.9935,W,1,06,1.56,233.3,M,-23.8,M,,*53
14:05:20.453 $GPRMC,200518.800,A,3306.7980,N,09713.9935,W,2.29,273.82,111123,,,A*74
14:05:20.528 $GPGGA,200518.900,3306.7980,N,09713.9935,W,1,06,1.56,233.3,M,-23.8,M,,*52
14:05:20.534 $GPRMC,200518.900,A,3306.7980,N,09713.9935,W,2.05,265.76,111123,,,A*77
14:05:20.642 $GPGGA,200519.000,3306.7980,N,09713.9936,W,1,06,1.56,233.3,M,-23.8,M,,*59
14:05:20.648 $GPRMC,200519.000,A,3306.7980,N,09713.9936,W,1.84,268.25,111123,,,A*7D
14:05:20.720 $GPGGA,200519.100,3306.7981,N,09713.9936,W,1,06,1.56,233.3,M,-23.8,M,,*59
14:05:20.762 $GPRMC,200519.100,A,3306.7981,N,09713.9936,W,1.90,265.83,111123,,,A*79
14:05:20.833 $GPGGA,200519.200,3306.7981,N,09713.9937,W,1,06,1.56,233.3,M,-23.8,M,,*5B
14:05:20.854 $GPRMC,200519.200,A,3306.7981,N,09713.9937,W,1.86,270.48,111123,,,A*7F
14:05:20.948 $GPGGA,200519.300,3306.7981,N,09713.9938,W,1,06,1.56,233.3,M,-23.8,M,,*55
14:05:20.954 $GPRMC,200519.300,A,3306.7981,N,09713.9938,W,1.80,270.14,111123,,,A*7E
14:05:21.024 $GPGGA,200519.400,3306.7981,N,09713.9938,W,1,06,1.56,233.3,M,-23.8,M,,*52
14:05:21.067 $GPRMC,200519.400,A,3306.7981,N,09713.9938,W,2.08,277.86,111123,,,A*76
14:05:21.140 $GPGGA,200519.500,3306.7981,N,09713.9939,W,1,06,1.56,233.2,M,-23.8,M,,*53
14:05:21.145 $GPRMC,200519.500,A,3306.7981,N,09713.9939,W,2.08,275.01,111123,,,A*7B
14:05:21.219 $GPGGA,200519.600,3306.7981,N,09713.9940,W,1,06,1.56,233.2,M,-23.8,M,,*5E
14:05:21.259 $GPRMC,200519.600,A,3306.7981,N,09713.9940,W,2.04,272.37,111123,,,A*78
14:05:21.333 $GPGGA,200519.700,3306.7981,N,09713.9940,W,1,06,1.56,233.2,M,-23.8,M,,*5F
14:05:21.340 $GPRMC,200519.700,A,3306.7981,N,09713.9940,W,1.86,274.48,111123,,,A*7E
14:05:21.410 $GPGGA,200519.800,3306.7981,N,09713.9941,W,1,06,1.56,233.2,M,-23.8,M,,*51
14:05:21.453 $GPRMC,200519.800,A,3306.7981,N,09713.9941,W,1.87,273.96,111123,,,A*75
14:05:21.524 $GPGGA,200519.900,3306.7981,N,09713.9941,W,1,06,1.56,233.2,M,-23.8,M,,*50
14:05:21.563 $GPRMC,200519.900,A,3306.7981,N,09713.9941,W,1.90,274.75,111123,,,A*78
14:05:21.637 $GPGGA,200520.000,3306.7981,N,09713.9942,W,1,06,1.56,233.2,M,-23.8,M,,*50
14:05:21.643 $GPRMC,200520.000,A,3306.7981,N,09713.9942,W,2.14,271.12,111123,,,A*73
14:05:21.714 $GPGGA,200520.100,3306.7981,N,09713.9942,W,1,06,1.56,233.2,M,-23.8,M,,*51
14:05:21.757 $GPRMC,200520.100,A,3306.7981,N,09713.9942,W,2.21,267.52,111123,,,A*77
14:05:21.830 $GPGGA,200520.200,3306.7981,N,09713.9943,W,1,06,1.56,233.2,M,-23.8,M,,*53
14:05:21.868 $GPRMC,200520.200,A,3306.7981,N,09713.9943,W,2.15,266.83,111123,,,A*7F
14:05:21.945 $GPGGA,200520.300,3306.7981,N,09713.9944,W,1,06,1.56,233.2,M,-23.8,M,,*55
14:05:21.951 $GPRMC,200520.300,A,3306.7981,N,09713.9944,W,1.94,269.69,111123,,,A*78
14:05:22.024 $GPGGA,200520.400,3306.7981,N,09713.9944,W,1,06,1.56,233.2,M,-23.8,M,,*52
14:05:22.064 $GPRMC,200520.400,A,3306.7981,N,09713.9944,W,1.89,269.53,111123,,,A*7A
14:05:22.137 $GPGGA,200520.500,3306.7981,N,09713.9945,W,1,06,1.56,233.2,M,-23.8,M,,*52
14:05:22.144 $GPRMC,200520.500,A,3306.7981,N,09713.9945,W,1.82,270.65,111123,,,A*7C
14:05:22.214 $GPGGA,200520.600,3306.7981,N,09713.9945,W,1,06,1.56,233.2,M,-23.8,M,,*51
14:05:22.266 $GPRMC,200520.600,A,3306.7981,N,09713.9945,W,1.84,268.68,111123,,,A*7D
14:05:22.330 $GPGGA,200520.700,3306.7982,N,09713.9946,W,1,06,1.56,233.2,M,-23.8,M,,*50
14:05:22.368 $GPRMC,200520.700,A,3306.7982,N,09713.9946,W,2.06,273.21,111123,,,A*72
14:05:22.444 $GPGGA,200520.800,3306.7982,N,09713.9946,W,1,06,1.56,233.1,M,-23.8,M,,*5C
14:05:22.450 $GPRMC,200520.800,A,3306.7982,N,09713.9946,W,1.89,275.70,111123,,,A*7B
14:05:22.522 $GPGGA,200520.900,3306.7982,N,09713.9947,W,1,06,1.56,233.1,M,-23.8,M,,*5C
14:05:22.563 $GPRMC,200520.900,A,3306.7982,N,09713.9947,W,1.94,276.62,111123,,,A*77
14:05:22.636 $GPGGA,200521.000,3306.7982,N,09713.9948,W,1,06,1.56,233.1,M,-23.8,M,,*5B
14:05:22.644 $GPRMC,200521.000,A,3306.7982,N,09713.9948,W,1.67,275.54,111123,,,A*7A
14:05:22.751 $GPGGA,200521.100,3306.7982,N,09713.9948,W,1,06,1.56,233.1,M,-23.8,M,,*5A
14:05:22.757 $GPRMC,200521.100,A,3306.7982,N,09713.9948,W,1.63,272.15,111123,,,A*7D
14:05:22.829 $GPGGA,200521.200,3306.7982,N,09713.9949,W,1,06,1.56,233.1,M,-23.8,M,,*58
14:05:22.867 $GPRMC,200521.200,A,3306.7982,N,09713.9949,W,1.69,270.94,111123,,,A*7E
14:05:22.941 $GPGGA,200521.300,3306.7982,N,09713.9949,W,1,06,1.56,233.1,M,-23.8,M,,*59
14:05:22.952 $GPRMC,200521.300,A,3306.7982,N,09713.9949,W,1.75,278.43,111123,,,A*70
14:05:23.018 $GPGGA,200521.400,3306.7982,N,09713.9950,W,1,06,1.56,233.1,M,-23.8,M,,*56
14:05:23.061 $GPRMC,200521.400,A,3306.7982,N,09713.9950,W,1.81,267.21,111123,,,A*7E
14:05:23.134 $GPGGA,200521.500,3306.7982,N,09713.9951,W,1,06,1.56,233.0,M,-23.8,M,,*57
14:05:23.142 $GPRMC,200521.500,A,3306.7982,N,09713.9951,W,1.87,272.22,111123,,,A*7F
14:05:23.250 $GPGGA,200521.600,3306.7982,N,09713.9951,W,1,06,1.56,233.0,M,-23.8,M,,*54
14:05:23.257 $GPRMC,200521.600,A,3306.7982,N,09713.9951,W,1.87,263.59,111123,,,A*70
14:05:23.332 $GPGGA,200521.700,3306.7982,N,09713.9952,W,1,06,1.56,233.0,M,-23.8,M,,*56
14:05:23.367 $GPRMC,200521.700,A,3306.7982,N,09713.9952,W,1.67,268.21,111123,,,A*78
14:05:23.448 $GPGGA,200521.800,3306.7982,N,09713.9952,W,1,06,1.56,233.0,M,-23.8,M,,*59
14:05:23.450 $GPRMC,200521.800,A,3306.7982,N,09713.9952,W,1.70,265.76,111123,,,A*7E
14:05:23.519 $GPGGA,200521.900,3306.7982,N,09713.9953,W,1,06,1.56,233.0,M,-23.8,M,,*59
14:05:23.561 $GPRMC,200521.900,A,3306.7982,N,09713.9953,W,1.44,270.91,111123,,,A*74
14:05:23.633 $GPGGA,200522.000,3306.7982,N,09713.9953,W,1,06,1.56,233.0,M,-23.8,M,,*53
14:05:23.639 $GPRMC,200522.000,A,3306.7982,N,09713.9953,W,1.71,263.73,111123,,,A*76
14:05:23.748 $GPGGA,200522.100,3306.7982,N,09713.9954,W,1,06,1.56,233.0,M,-23.8,M,,*55
14:05:23.755 $GPRMC,200522.100,A,3306.7982,N,09713.9954,W,1.68,267.64,111123,,,A*7A
14:05:23.827 $GPGGA,200522.200,3306.7982,N,09713.9954,W,1,06,1.56,233.0,M,-23.8,M,,*56
14:05:23.867 $GPRMC,200522.200,A,3306.7982,N,09713.9954,W,1.65,270.95,111123,,,A*7C
14:05:23.942 $GPGGA,200522.300,3306.7982,N,09713.9955,W,1,06,1.56,233.0,M,-23.8,M,,*56
14:05:23.948 $GPRMC,200522.300,A,3306.7982,N,09713.9955,W,1.58,266.24,111123,,,A*7F
14:05:24.019 $GPGGA,200522.400,3306.7982,N,09713.9955,W,1,06,1.56,232.9,M,-23.8,M,,*59
14:05:24.061 $GPRMC,200522.400,A,3306.7982,N,09713.9955,W,1.17,272.59,111123,,,A*7C
14:05:24.132 $GPGGA,200522.500,3306.7982,N,09713.9955,W,1,06,1.56,232.9,M,-23.8,M,,*58
14:05:24.171 $GPRMC,200522.500,A,3306.7982,N,09713.9955,W,1.14,272.85,111123,,,A*7F
14:05:24.246 $GPGGA,200522.600,3306.7982,N,09713.9956,W,1,06,1.56,232.9,M,-23.8,M,,*58
14:05:24.253 $GPRMC,200522.600,A,3306.7982,N,09713.9956,W,1.10,274.57,111123,,,A*72
14:05:24.322 $GPGGA,200522.700,3306.7982,N,09713.9956,W,1,06,1.56,232.9,M,-23.8,M,,*59
14:05:24.362 $GPRMC,200522.700,A,3306.7982,N,09713.9956,W,1.04,281.61,111123,,,A*79
14:05:24.436 $GPGGA,200522.800,3306.7982,N,09713.9956,W,1,06,1.56,232.9,M,-23.8,M,,*56
14:05:24.442 $GPRMC,200522.800,A,3306.7982,N,09713.9956,W,0.82,284.83,111123,,,A*70
14:05:24.514 $GPGGA,200522.900,3306.7982,N,09713.9956,W,1,06,1.56,232.9,M,-23.8,M,,*57
14:05:24.558 $GPRMC,200522.900,A,3306.7982,N,09713.9956,W,0.65,296.45,111123,,,A*71
14:05:24.630 $GPGGA,200523.000,3306.7983,N,09713.9956,W,1,06,1.56,232.9,M,-23.8,M,,*5E
14:05:24.637 $GPRMC,200523.000,A,3306.7983,N,09713.9956,W,0.62,322.85,111123,,,A*7D
14:05:24.745 $GPGGA,200523.100,3306.7983,N,09713.9956,W,1,06,1.56,232.8,M,-23.8,M,,*5E
14:05:24.751 $GPRMC,200523.100,A,3306.7983,N,09713.9956,W,0.66,347.39,111123,,,A*7C
14:05:24.822 $GPGGA,200523.200,3306.7983,N,09713.9956,W,1,06,1.98,232.8,M,-23.8,M,,*5F
14:05:24.867 $GPRMC,200523.200,A,3306.7983,N,09713.9956,W,0.83,5.38,111123,,,A*70
14:05:24.936 $GPGGA,200523.300,3306.7983,N,09713.9955,W,1,06,1.98,232.8,M,-23.8,M,,*5D
14:05:24.943 $GPRMC,200523.300,A,3306.7983,N,09713.9955,W,1.03,24.65,111123,,,A*40
14:05:25.050 $GPGGA,200523.400,3306.7984,N,09713.9955,W,1,06,1.56,232.8,M,-23.8,M,,*5F
14:05:25.056 $GPRMC,200523.400,A,3306.7984,N,09713.9955,W,1.23,26.20,111123,,,A*41
14:05:25.126 $GPGGA,200523.500,3306.7984,N,09713.9955,W,1,06,1.56,232.8,M,-23.8,M,,*5E
14:05:25.166 $GPRMC,200523.500,A,3306.7984,N,09713.9955,W,1.21,29.95,111123,,,A*43
14:05:25.241 $GPGGA,200523.600,3306.7984,N,09713.9955,W,1,06,1.56,232.8,M,-23.8,M,,*5D
14:05:25.247 $GPRMC,200523.600,A,3306.7984,N,09713.9955,W,1.19,24.56,111123,,,A*49
14:05:25.317 $GPGGA,200523.700,3306.7985,N,09713.9955,W,1,06,1.56,232.8,M,-23.8,M,,*5D
14:05:25.361 $GPRMC,200523.700,A,3306.7985,N,09713.9955,W,1.16,21.90,111123,,,A*49
14:05:25.434 $GPGGA,200523.800,3306.7985,N,09713.9954,W,1,06,1.56,232.7,M,-23.8,M,,*5C
14:05:25.441 $GPRMC,200523.800,A,3306.7985,N,09713.9954,W,1.10,20.01,111123,,,A*48
14:05:25.548 $GPGGA,200523.900,3306.7985,N,09713.9954,W,1,06,1.56,232.7,M,-23.8,M,,*5D
14:05:25.554 $GPRMC,200523.900,A,3306.7985,N,09713.9954,W,1.03,7.55,111123,,,A*7F
14:05:25.626 $GPGGA,200524.000,3306.7985,N,09713.9954,W,1,06,1.98,232.7,M,-23.8,M,,*51
14:05:25.664 $GPRMC,200524.000,A,3306.7985,N,09713.9954,W,1.01,4.47,111123,,,A*73
14:05:25.739 $GPGGA,200524.100,3306.7986,N,09713.9954,W,1,06,1.98,232.7,M,-23.8,M,,*53
14:05:25.746 $GPRMC,200524.100,A,3306.7986,N,09713.9954,W,1.00,0.99,111123,,,A*77
14:05:25.816 $GPGGA,200524.200,3306.7986,N,09713.9954,W,1,06,1.98,232.7,M,-23.8,M,,*50
14:05:25.860 $GPRMC,200524.200,A,3306.7986,N,09713.9954,W,1.28,355.44,111123,,,A*7D
14:05:25.932 $GPGGA,200524.300,3306.7987,N,09713.9954,W,1,06,1.98,232.7,M,-23.8,M,,*50
14:05:25.938 $GPRMC,200524.300,A,3306.7987,N,09713.9954,W,1.49,1.53,111123,,,A*7E
14:05:26.048 $GPGGA,200524.400,3306.7987,N,09713.9954,W,1,06,1.98,232.7,M,-23.8,M,,*57
14:05:26.054 $GPRMC,200524.400,A,3306.7987,N,09713.9954,W,1.69,0.18,111123,,,A*75
14:05:26.125 $GPGGA,200524.500,3306.7988,N,09713.9954,W,1,06,1.98,232.6,M,-23.8,M,,*58
14:05:26.165 $GPRMC,200524.500,A,3306.7988,N,09713.9954,W,1.73,1.00,111123,,,A*78
14:05:26.239 $GPGGA,200524.600,3306.7988,N,09713.9955,W,1,06,1.98,232.6,M,-23.8,M,,*5A
14:05:26.246 $GPRMC,200524.600,A,3306.7988,N,09713.9955,W,1.69,357.19,111123,,,A*79
14:05:26.316 $GPGGA,200524.700,3306.7989,N,09713.9955,W,1,06,1.98,232.6,M,-23.8,M,,*5A
14:05:26.359 $GPRMC,200524.700,A,3306.7989,N,09713.9955,W,1.70,2.76,111123,,,A*7B
14:05:26.429 $GPGGA,200524.800,3306.7989,N,09713.9955,W,1,06,1.98,232.5,M,-23.8,M,,*56
14:05:26.469 $GPRMC,200524.800,A,3306.7989,N,09713.9955,W,1.67,355.04,111123,,,A*76
14:05:26.544 $GPGGA,200524.900,3306.7990,N,09713.9955,W,1,06,1.98,232.5,M,-23.8,M,,*5F
14:05:26.551 $GPRMC,200524.900,A,3306.7990,N,09713.9955,W,1.84,358.14,111123,,,A*7E
14:05:26.620 $GPGGA,200525.000,3306.7990,N,09713.9955,W,1,06,1.98,232.5,M,-23.8,M,,*57
14:05:26.663 $GPRMC,200525.000,A,3306.7990,N,09713.9955,W,2.10,0.19,111123,,,A*7B
14:05:26.738 $GPGGA,200525.100,3306.7991,N,09713.9955,W,1,06,1.98,232.5,M,-23.8,M,,*57
14:05:26.744 $GPRMC,200525.100,A,3306.7991,N,09713.9955,W,2.09,0.90,111123,,,A*72
14:05:26.817 $GPGGA,200525.200,3306.7991,N,09713.9955,W,1,06,1.98,232.4,M,-23.8,M,,*55
14:05:26.858 $GPRMC,200525.200,A,3306.7991,N,09713.9955,W,1.79,357.69,111123,,,A*72
14:05:26.929 $GPGGA,200525.300,3306.7992,N,09713.9955,W,1,06,1.98,232.4,M,-23.8,M,,*57
14:05:26.969 $GPRMC,200525.300,A,3306.7992,N,09713.9955,W,1.82,355.27,111123,,,A*7C
14:05:27.043 $GPGGA,200525.400,3306.7992,N,09713.9955,W,1,06,1.98,232.4,M,-23.8,M,,*50
14:05:27.050 $GPRMC,200525.400,A,3306.7992,N,09713.9955,W,2.03,352.43,111123,,,A*74
14:05:27.120 $GPGGA,200525.500,3306.7993,N,09713.9955,W,1,06,1.98,232.4,M,-23.8,M,,*50
14:05:27.163 $GPRMC,200525.500,A,3306.7993,N,09713.9955,W,1.86,352.59,111123,,,A*71
14:05:27.236 $GPGGA,200525.600,3306.7993,N,09713.9955,W,1,06,1.98,232.4,M,-23.8,M,,*53
14:05:27.243 $GPRMC,200525.600,A,3306.7993,N,09713.9955,W,2.07,354.49,111123,,,A*7F
14:05:27.314 $GPGGA,200525.700,3306.7994,N,09713.9956,W,1,06,1.98,232.4,M,-23.8,M,,*56
14:05:27.359 $GPRMC,200525.700,A,3306.7994,N,09713.9956,W,2.24,357.44,111123,,,A*75
14:05:27.430 $GPGGA,200525.800,3306.7994,N,09713.9956,W,1,06,1.98,232.3,M,-23.8,M,,*5E
14:05:27.469 $GPRMC,200525.800,A,3306.7994,N,09713.9956,W,2.22,357.98,111123,,,A*7D
14:05:27.544 $GPGGA,200525.900,3306.7995,N,09713.9956,W,1,06,1.98,232.3,M,-23.8,M,,*5E
14:05:27.551 $GPRMC,200525.900,A,3306.7995,N,09713.9956,W,2.01,357.49,111123,,,A*70
14:05:27.621 $GPGGA,200526.000,3306.7995,N,09713.9956,W,1,06,1.98,232.3,M,-23.8,M,,*54
14:05:27.662 $GPRMC,200526.000,A,3306.7995,N,09713.9956,W,1.98,354.40,111123,,,A*73
14:05:27.735 $GPGGA,200526.100,3306.7996,N,09713.9956,W,1,06,1.98,232.3,M,-23.8,M,,*56
14:05:27.741 $GPRMC,200526.100,A,3306.7996,N,09713.9956,W,2.03,356.72,111123,,,A*73
14:05:27.814 $GPGGA,200526.200,3306.7996,N,09713.9956,W,1,06,1.98,232.2,M,-23.8,M,,*54
14:05:27.858 $GPRMC,200526.200,A,3306.7996,N,09713.9956,W,2.05,2.33,111123,,,A*71
14:05:27.930 $GPGGA,200526.300,3306.7997,N,09713.9956,W,1,06,1.98,232.2,M,-23.8,M,,*54
14:05:27.969 $GPRMC,200526.300,A,3306.7997,N,09713.9956,W,2.26,5.76,111123,,,A*76
14:05:28.044 $GPGGA,200526.400,3306.7997,N,09713.9956,W,1,06,1.98,232.2,M,-23.8,M,,*53
14:05:28.050 $GPRMC,200526.400,A,3306.7997,N,09713.9956,W,2.27,0.57,111123,,,A*76
14:05:28.121 $GPGGA,200526.500,3306.7998,N,09713.9956,W,1,06,1.98,232.2,M,-23.8,M,,*5D
14:05:28.162 $GPRMC,200526.500,A,3306.7998,N,09713.9956,W,2.22,357.55,111123,,,A*7E
14:05:28.234 $GPGGA,200526.600,3306.7998,N,09713.9956,W,1,06,1.98,232.2,M,-23.8,M,,*5E
14:05:28.240 $GPRMC,200526.600,A,3306.7998,N,09713.9956,W,1.88,357.58,111123,,,A*73
14:05:28.349 $GPGGA,200526.700,3306.7999,N,09713.9956,W,1,06,1.98,232.2,M,-23.8,M,,*5E
14:05:28.355 $GPRMC,200526.700,A,3306.7999,N,09713.9956,W,2.21,353.80,111123,,,A*72
14:05:28.425 $GPGGA,200526.800,3306.7999,N,09713.9956,W,1,06,1.98,232.1,M,-23.8,M,,*52
14:05:28.468 $GPRMC,200526.800,A,3306.7999,N,09713.9956,W,2.03,356.77,111123,,,A*70
14:05:28.543 $GPGGA,200526.900,3306.8000,N,09713.9956,W,1,06,1.98,232.1,M,-23.8,M,,*55
14:05:28.550 $GPRMC,200526.900,A,3306.8000,N,09713.9956,W,2.03,358.60,111123,,,A*7F
14:05:28.620 $GPGGA,200527.000,3306.8000,N,09713.9956,W,1,06,1.98,232.1,M,-23.8,M,,*5D
14:05:28.661 $GPRMC,200527.000,A,3306.8000,N,09713.9956,W,2.23,356.19,111123,,,A*75
14:05:28.736 $GPGGA,200527.100,3306.8001,N,09713.9957,W,1,06,1.98,232.0,M,-23.8,M,,*5D
14:05:28.741 $GPRMC,200527.100,A,3306.8001,N,09713.9957,W,2.07,355.93,111123,,,A*73
14:05:28.849 $GPGGA,200527.200,3306.8001,N,09713.9957,W,1,06,1.98,232.0,M,-23.8,M,,*5E
14:05:28.855 $GPRMC,200527.200,A,3306.8001,N,09713.9957,W,2.03,356.35,111123,,,A*7B
14:05:28.925 $GPGGA,200527.300,3306.8002,N,09713.9957,W,1,06,1.98,231.9,M,-23.8,M,,*56
14:05:28.973 $GPRMC,200527.300,A,3306.8002,N,09713.9957,W,2.02,356.93,111123,,,A*74
14:05:29.040 $GPGGA,200527.400,3306.8002,N,09713.9957,W,1,06,1.98,231.9,M,-23.8,M,,*51
14:05:29.047 $GPRMC,200527.400,A,3306.8002,N,09713.9957,W,2.23,359.97,111123,,,A*7B
14:05:29.118 $GPGGA,200527.500,3306.8003,N,09713.9957,W,1,06,1.98,231.8,M,-23.8,M,,*50
14:05:29.161 $GPRMC,200527.500,A,3306.8003,N,09713.9957,W,2.20,3.66,111123,,,A*7A
14:05:29.234 $GPGGA,200527.600,3306.8003,N,09713.9957,W,1,06,1.98,231.8,M,-23.8,M,,*53
14:05:29.242 $GPRMC,200527.600,A,3306.8003,N,09713.9957,W,2.16,4.17,111123,,,A*7D
14:05:29.349 $GPGGA,200527.700,3306.8004,N,09713.9957,W,1,06,1.98,231.8,M,-23.8,M,,*55
14:05:29.355 $GPRMC,200527.700,A,3306.8004,N,09713.9957,W,2.13,2.20,111123,,,A*7C
14:05:29.426 $GPGGA,200527.800,3306.8004,N,09713.9957,W,1,06,1.98,231.8,M,-23.8,M,,*5A
14:05:29.465 $GPRMC,200527.800,A,3306.8004,N,09713.9957,W,1.68,1.36,111123,,,A*78
14:05:29.539 $GPGGA,200527.900,3306.8005,N,09713.9957,W,1,06,1.98,231.8,M,-23.8,M,,*5A
14:05:29.545 $GPRMC,200527.900,A,3306.8005,N,09713.9957,W,1.93,357.68,111123,,,A*77
14:05:29.617 $GPGGA,200528.000,3306.8006,N,09713.9957,W,1,06,1.98,231.8,M,-23.8,M,,*5F
14:05:29.659 $GPRMC,200528.000,A,3306.8006,N,09713.9957,W,2.35,352.88,111123,,,A*76
14:05:29.730 $GPGGA,200528.100,3306.8006,N,09713.9958,W,1,06,1.98,231.8,M,-23.8,M,,*51
14:05:29.771 $GPRMC,200528.100,A,3306.8006,N,09713.9958,W,2.51,355.62,111123,,,A*79
14:05:29.849 $GPGGA,200528.200,3306.8007,N,09713.9957,W,1,06,1.98,231.7,M,-23.8,M,,*53
14:05:29.855 $GPRMC,200528.200,A,3306.8007,N,09713.9957,W,1.92,1.72,111123,,,A*7B
14:05:29.925 $GPGGA,200528.300,3306.8007,N,09713.9958,W,1,06,1.98,231.7,M,-23.8,M,,*5D
14:05:29.965 $GPRMC,200528.300,A,3306.8007,N,09713.9958,W,1.99,357.11,111123,,,A*7B
14:05:30.038 $GPGGA,200528.400,3306.8008,N,09713.9958,W,1,06,1.98,231.7,M,-23.8,M,,*55
14:05:30.045 $GPRMC,200528.400,A,3306.8008,N,09713.9958,W,1.73,3.89,111123,,,A*74
14:05:30.114 $GPGGA,200528.500,3306.8008,N,09713.9958,W,1,06,1.98,231.6,M,-23.8,M,,*55
14:05:30.158 $GPRMC,200528.500,A,3306.8008,N,09713.9958,W,1.78,357.39,111123,,,A*77
14:05:30.229 $GPGGA,200528.600,3306.8008,N,09713.9958,W,1,06,1.98,231.6,M,-23.8,M,,*56
14:05:30.269 $GPRMC,200528.600,A,3306.8008,N,09713.9958,W,1.97,359.22,111123,,,A*71
14:05:30.345 $GPGGA,200528.700,3306.8009,N,09713.9958,W,1,06,1.98,231.5,M,-23.8,M,,*55
14:05:30.351 $GPRMC,200528.700,A,3306.8009,N,09713.9958,W,1.96,1.19,111123,,,A*76
14:05:30.423 $GPGGA,200528.800,3306.8009,N,09713.9958,W,1,06,1.98,231.5,M,-23.8,M,,*5A
14:05:30.465 $GPRMC,200528.800,A,3306.8009,N,09713.9958,W,2.20,5.37,111123,,,A*7F
14:05:30.539 $GPGGA,200528.900,3306.8010,N,09713.9959,W,1,06,1.98,231.5,M,-23.8,M,,*52
14:05:30.545 $GPRMC,200528.900,A,3306.8010,N,09713.9959,W,2.17,357.92,111123,,,A*78
14:05:30.615 $GPGGA,200529.000,3306.8011,N,09713.9959,W,1,06,1.98,231.5,M,-23.8,M,,*5B
14:05:30.659 $GPRMC,200529.000,A,3306.8011,N,09713.9959,W,1.87,358.27,111123,,,A*7A
14:05:30.729 $GPGGA,200529.100,3306.8011,N,09713.9959,W,1,06,1.98,231.5,M,-23.8,M,,*5A
14:05:30.768 $GPRMC,200529.100,A,3306.8011,N,09713.9959,W,1.90,355.52,111123,,,A*72
14:05:30.844 $GPGGA,200529.200,3306.8012,N,09713.9959,W,1,06,1.98,231.4,M,-23.8,M,,*5B
14:05:30.849 $GPRMC,200529.200,A,3306.8012,N,09713.9959,W,1.93,348.11,111123,,,A*7A
14:05:30.921 $GPGGA,200529.300,3306.8012,N,09713.9959,W,1,06,1.98,231.4,M,-23.8,M,,*5A
14:05:30.963 $GPRMC,200529.300,A,3306.8012,N,09713.9959,W,1.99,350.72,111123,,,A*7D
14:05:31.035 $GPGGA,200529.400,3306.8013,N,09713.9959,W,1,06,1.98,231.4,M,-23.8,M,,*5C
14:05:31.041 $GPRMC,200529.400,A,3306.8013,N,09713.9959,W,1.95,349.22,111123,,,A*7A
14:05:31.153 $GPGGA,200529.500,3306.8013,N,09713.9959,W,1,06,1.98,231.3,M,-23.8,M,,*5A
14:05:31.160 $GPRMC,200529.500,A,3306.8013,N,09713.9959,W,1.91,350.18,111123,,,A*7E
14:05:31.229 $GPGGA,200529.600,3306.8013,N,09713.9960,W,1,06,1.98,231.3,M,-23.8,M,,*53
14:05:31.272 $GPRMC,200529.600,A,3306.8013,N,09713.9960,W,1.91,357.67,111123,,,A*78
14:05:31.343 $GPGGA,200529.700,3306.8014,N,09713.9960,W,1,06,1.98,231.3,M,-23.8,M,,*55
14:05:31.350 $GPRMC,200529.700,A,3306.8014,N,09713.9960,W,1.86,0.10,111123,,,A*79
14:05:31.419 $GPGGA,200529.800,3306.8014,N,09713.9960,W,1,06,1.98,231.3,M,-23.8,M,,*5A
14:05:31.459 $GPRMC,200529.800,A,3306.8014,N,09713.9960,W,1.82,352.02,111123,,,A*75
14:05:31.533 $GPGGA,200529.900,3306.8015,N,09713.9960,W,1,06,1.98,231.2,M,-23.8,M,,*5B
14:05:31.539 $GPRMC,200529.900,A,3306.8015,N,09713.9960,W,1.78,357.03,111123,,,A*74
14:05:31.611 $GPGGA,200530.000,3306.8015,N,09713.9960,W,1,06,1.98,231.2,M,-23.8,M,,*5A
14:05:31.654 $GPRMC,200530.000,A,3306.8015,N,09713.9960,W,1.79,359.31,111123,,,A*7B
14:05:31.726 $GPGGA,200530.100,3306.8016,N,09713.9960,W,1,07,1.29,231.2,M,-23.8,M,,*53
14:05:31.768 $GPRMC,200530.100,A,3306.8016,N,09713.9960,W,1.81,4.97,111123,,,A*79
14:05:31.842 $GPGGA,200530.200,3306.8016,N,09713.9960,W,1,07,1.29,231.2,M,-23.8,M,,*50
14:05:31.849 $GPRMC,200530.200,A,3306.8016,N,09713.9960,W,2.05,4.85,111123,,,A*76
14:05:31.919 $GPGGA,200530.300,3306.8017,N,09713.9960,W,1,07,1.29,231.2,M,-23.8,M,,*50
14:05:31.961 $GPRMC,200530.300,A,3306.8017,N,09713.9960,W,1.99,1.61,111123,,,A*7F
14:05:32.033 $GPGGA,200530.400,3306.8017,N,09713.9960,W,1,07,1.29,231.2,M,-23.8,M,,*57
14:05:32.040 $GPRMC,200530.400,A,3306.8017,N,09713.9960,W,1.70,357.12,111123,,,A*7B
14:05:32.111 $GPGGA,200530.500,3306.8018,N,09713.9960,W,1,07,1.29,231.2,M,-23.8,M,,*59
14:05:32.153 $GPRMC,200530.500,A,3306.8018,N,09713.9960,W,1.65,0.88,111123,,,A*73
14:05:32.223 $GPGGA,200530.600,3306.8018,N,09713.9960,W,1,07,1.29,231.1,M,-23.8,M,,*59
14:05:32.262 $GPRMC,200530.600,A,3306.8018,N,09713.9960,W,1.66,358.73,111123,,,A*79
14:05:32.336 $GPGGA,200530.700,3306.8019,N,09713.9961,W,1,07,1.29,231.1,M,-23.8,M,,*58
14:05:32.343 $GPRMC,200530.700,A,3306.8019,N,09713.9961,W,1.69,352.82,111123,,,A*73
14:05:32.416 $GPGGA,200530.800,3306.8019,N,09713.9961,W,1,07,1.29,231.1,M,-23.8,M,,*57
14:05:32.458 $GPRMC,200530.800,A,3306.8019,N,09713.9961,W,1.69,357.90,111123,,,A*7A
14:05:32.531 $GPGGA,200530.900,3306.8020,N,09713.9961,W,1,07,1.29,231.1,M,-23.8,M,,*5C
14:05:32.538 $GPRMC,200530.900,A,3306.8020,N,09713.9961,W,1.69,1.00,111123,,,A*78
14:05:32.646 $GPGGA,200531.000,3306.8020,N,09713.9961,W,1,07,1.29,231.1,M,-23.8,M,,*54
14:05:32.655 $GPRMC,200531.000,A,3306.8020,N,09713.9961,W,1.52,356.01,111123,,,A*78
14:05:32.723 $GPGGA,200531.100,3306.8020,N,09713.9961,W,1,07,1.29,231.1,M,-23.8,M,,*55
14:05:32.764 $GPRMC,200531.100,A,3306.8020,N,09713.9961,W,1.36,7.20,111123,,,A*7F
14:05:32.837 $GPGGA,200531.200,3306.8021,N,09713.9961,W,1,07,1.29,231.1,M,-23.8,M,,*57
14:05:32.844 $GPRMC,200531.200,A,3306.8021,N,09713.9961,W,1.70,355.07,111123,,,A*7E
14:05:32.916 $GPGGA,200531.300,3306.8021,N,09713.9961,W,1,07,1.29,231.1,M,-23.8,M,,*56
14:05:32.958 $GPRMC,200531.300,A,3306.8021,N,09713.9961,W,1.64,9.40,111123,,,A*73
14:05:33.030 $GPGGA,200531.400,3306.8022,N,09713.9961,W,1,07,1.29,231.1,M,-23.8,M,,*52
14:05:33.072 $GPRMC,200531.400,A,3306.8022,N,09713.9961,W,1.65,6.11,111123,,,A*7D
14:05:33.146 $GPGGA,200531.500,3306.8022,N,09713.9961,W,1,07,1.29,231.1,M,-23.8,M,,*53
14:05:33.154 $GPRMC,200531.500,A,3306.8022,N,09713.9961,W,1.42,13.17,111123,,,A*4B
14:05:33.223 $GPGGA,200531.600,3306.8022,N,09713.9961,W,1,07,1.29,231.0,M,-23.8,M,,*51
14:05:33.266 $GPRMC,200531.600,A,3306.8022,N,09713.9961,W,1.41,8.80,111123,,,A*7F
14:05:33.341 $GPGGA,200531.700,3306.8022,N,09713.9961,W,1,07,1.29,231.0,M,-23.8,M,,*50
14:05:33.344 $GPRMC,200531.700,A,3306.8022,N,09713.9961,W,1.25,13.65,111123,,,A*4D
14:05:33.452 $GPGGA,200531.800,3306.8023,N,09713.9961,W,1,07,1.29,231.0,M,-23.8,M,,*5E
14:05:33.459 $GPRMC,200531.800,A,3306.8023,N,09713.9961,W,1.29,17.51,111123,,,A*4C
14:05:33.530 $GPGGA,200531.900,3306.8023,N,09713.9961,W,1,07,1.17,231.0,M,-23.8,M,,*52
14:05:33.569 $GPRMC,200531.900,A,3306.8023,N,09713.9961,W,1.26,15.85,111123,,,A*49
14:05:33.643 $GPGGA,200532.000,3306.8023,N,09713.9961,W,1,07,1.17,231.0,M,-23.8,M,,*58
14:05:33.649 $GPRMC,200532.000,A,3306.8023,N,09713.9961,W,1.28,15.57,111123,,,A*42
14:05:33.722 $GPGGA,200532.100,3306.8024,N,09713.9961,W,1,07,1.17,231.0,M,-23.8,M,,*5E
14:05:33.765 $GPRMC,200532.100,A,3306.8024,N,09713.9961,W,1.48,26.20,111123,,,A*42
14:05:33.837 $GPGGA,200532.200,3306.8024,N,09713.9960,W,1,07,1.17,230.9,M,-23.8,M,,*54
14:05:33.843 $GPRMC,200532.200,A,3306.8024,N,09713.9960,W,1.29,30.10,111123,,,A*43
14:05:33.952 $GPGGA,200532.300,3306.8024,N,09713.9960,W,1,07,1.17,231.0,M,-23.8,M,,*5D
14:05:33.960 $GPRMC,200532.300,A,3306.8024,N,09713.9960,W,1.30,47.54,111123,,,A*4A
14:05:34.028 $GPGGA,200532.400,3306.8024,N,09713.9959,W,1,07,1.17,231.0,M,-23.8,M,,*50
14:05:34.074 $GPRMC,200532.400,A,3306.8024,N,09713.9959,W,1.25,60.89,111123,,,A*46
14:05:34.142 $GPGGA,200532.500,3306.8023,N,09713.9959,W,1,07,1.17,231.0,M,-23.8,M,,*56
14:05:34.148 $GPRMC,200532.500,A,3306.8023,N,09713.9959,W,1.23,83.07,111123,,,A*4D
14:05:34.219 $GPGGA,200532.600,3306.8023,N,09713.9959,W,1,07,1.17,231.0,M,-23.8,M,,*55
14:05:34.263 $GPRMC,200532.600,A,3306.8023,N,09713.9959,W,1.41,97.14,111123,,,A*4D
14:05:34.334 $GPGGA,200532.700,3306.8023,N,09713.9958,W,1,07,1.17,231.0,M,-23.8,M,,*55
14:05:34.342 $GPRMC,200532.700,A,3306.8023,N,09713.9958,W,1.45,108.97,111123,,,A*75
14:05:34.451 $GPGGA,200532.800,3306.8023,N,09713.9958,W,1,07,1.17,230.9,M,-23.8,M,,*52
14:05:34.459 $GPRMC,200532.800,A,3306.8023,N,09713.9958,W,1.64,111.43,111123,,,A*78
14:05:34.527 $GPGGA,200532.900,3306.8022,N,09713.9957,W,1,07,1.17,230.9,M,-23.8,M,,*5D
14:05:34.568 $GPRMC,200532.900,A,3306.8022,N,09713.9957,W,1.58,114.07,111123,,,A*7D
14:05:34.643 $GPGGA,200533.000,3306.8022,N,09713.9957,W,1,07,1.17,230.9,M,-23.8,M,,*55
14:05:34.648 $GPRMC,200533.000,A,3306.8022,N,09713.9957,W,1.58,116.47,111123,,,A*73
14:05:34.719 $GPGGA,200533.100,3306.8022,N,09713.9957,W,1,07,1.17,230.9,M,-23.8,M,,*54
14:05:34.761 $GPRMC,200533.100,A,3306.8022,N,09713.9957,W,1.60,96.47,111123,,,A*40
14:05:34.833 $GPGGA,200533.200,3306.8022,N,09713.9956,W,1,07,1.17,230.9,M,-23.8,M,,*56
14:05:34.872 $GPRMC,200533.200,A,3306.8022,N,09713.9956,W,1.76,96.21,111123,,,A*45
14:05:34.946 $GPGGA,200533.300,3306.8022,N,09713.9956,W,1,07,1.17,230.9,M,-23.8,M,,*57
14:05:34.952 $GPRMC,200533.300,A,3306.8022,N,09713.9956,W,1.77,85.73,111123,,,A*40
14:05:35.025 $GPGGA,200533.400,3306.8022,N,09713.9955,W,1,07,1.17,230.9,M,-23.8,M,,*53
14:05:35.065 $GPRMC,200533.400,A,3306.8022,N,09713.9955,W,1.78,84.44,111123,,,A*4E
14:05:35.139 $GPGGA,200533.500,3306.8022,N,09713.9955,W,1,07,1.17,230.9,M,-23.8,M,,*52
14:05:35.146 $GPRMC,200533.500,A,3306.8022,N,09713.9955,W,2.02,87.80,111123,,,A*4A
14:05:35.218 $GPGGA,200533.600,3306.8022,N,09713.9954,W,1,07,1.17,230.8,M,-23.8,M,,*51
14:05:35.261 $GPRMC,200533.600,A,3306.8022,N,09713.9954,W,1.95,90.96,111123,,,A*44
14:05:35.332 $GPGGA,200533.700,3306.8022,N,09713.9954,W,1,07,1.17,230.8,M,-23.8,M,,*50
14:05:35.371 $GPRMC,200533.700,A,3306.8022,N,09713.9954,W,1.70,88.06,111123,,,A*4E
14:05:35.445 $GPGGA,200533.800,3306.8022,N,09713.9953,W,1,07,1.17,230.8,M,-23.8,M,,*58
14:05:35.452 $GPRMC,200533.800,A,3306.8022,N,09713.9953,W,1.68,84.86,111123,,,A*4B
14:05:35.522 $GPGGA,200533.900,3306.8022,N,09713.9953,W,1,07,1.17,230.8,M,-23.8,M,,*59
14:05:35.563 $GPRMC,200533.900,A,3306.8022,N,09713.9953,W,1.71,78.63,111123,,,A*4A
14:05:35.637 $GPGGA,200534.000,3306.8021,N,09713.9952,W,1,07,1.17,230.8,M,-23.8,M,,*55
14:05:35.643 $GPRMC,200534.000,A,3306.8021,N,09713.9952,W,1.71,91.62,111123,,,A*40
14:05:35.716 $GPGGA,200534.100,3306.8021,N,09713.9951,W,1,07,1.17,230.8,M,-23.8,M,,*57
14:05:35.759 $GPRMC,200534.100,A,3306.8021,N,09713.9951,W,1.87,90.06,111123,,,A*48
14:05:35.831 $GPGGA,200534.200,3306.8021,N,09713.9951,W,1,07,1.17,230.8,M,-23.8,M,,*54
14:05:35.874 $GPRMC,200534.200,A,3306.8021,N,09713.9951,W,2.35,95.23,111123,,,A*43
14:05:35.945 $GPGGA,200534.300,3306.8021,N,09713.9950,W,1,07,1.17,230.8,M,-23.8,M,,*54
14:05:35.953 $GPRMC,200534.300,A,3306.8021,N,09713.9950,W,2.27,93.68,111123,,,A*49
14:05:36.023 $GPGGA,200534.400,3306.8021,N,09713.9949,W,1,07,1.17,230.8,M,-23.8,M,,*5B
14:05:36.063 $GPRMC,200534.400,A,3306.8021,N,09713.9949,W,1.89,93.75,111123,,,A*4D
14:05:36.136 $GPGGA,200534.500,3306.8021,N,09713.9949,W,1,07,1.17,230.8,M,-23.8,M,,*5A
14:05:36.142 $GPRMC,200534.500,A,3306.8021,N,09713.9949,W,1.81,97.87,111123,,,A*4D
14:05:36.249 $GPGGA,200534.600,3306.8021,N,09713.9948,W,1,07,1.17,230.8,M,-23.8,M,,*58
14:05:36.255 $GPRMC,200534.600,A,3306.8021,N,09713.9948,W,1.88,90.24,111123,,,A*48
14:05:36.328 $GPGGA,200534.700,3306.8021,N,09713.9947,W,1,07,1.17,230.8,M,-23.8,M,,*56
14:05:36.367 $GPRMC,200534.700,A,3306.8021,N,09713.9947,W,2.16,91.36,111123,,,A*40
14:05:36.442 $GPGGA,200534.800,3306.8021,N,09713.9947,W,1,07,1.17,230.9,M,-23.8,M,,*58
14:05:36.449 $GPRMC,200534.800,A,3306.8021,N,09713.9947,W,2.34,93.77,111123,,,A*48
14:05:36.522 $GPGGA,200534.900,3306.8021,N,09713.9946,W,1,07,1.17,230.9,M,-23.8,M,,*58
14:05:36.564 $GPRMC,200534.900,A,3306.8021,N,09713.9946,W,1.96,88.57,111123,,,A*4B
14:05:36.635 $GPGGA,200535.000,3306.8021,N,09713.9946,W,1,07,1.17,230.9,M,-23.8,M,,*50
14:05:36.642 $GPRMC,200535.000,A,3306.8021,N,09713.9946,W,1.95,87.86,111123,,,A*43
14:05:36.750 $GPGGA,200535.100,3306.8020,N,09713.9945,W,1,07,1.17,230.9,M,-23.8,M,,*53
14:05:36.757 $GPRMC,200535.100,A,3306.8020,N,09713.9945,W,1.90,89.05,111123,,,A*40
14:05:36.827 $GPGGA,200535.200,3306.8020,N,09713.9944,W,1,07,1.17,230.9,M,-23.8,M,,*51
14:05:36.869 $GPRMC,200535.200,A,3306.8020,N,09713.9944,W,1.67,90.49,111123,,,A*4A
14:05:36.942 $GPGGA,200535.300,3306.8020,N,09713.9944,W,1,07,1.17,230.9,M,-23.8,M,,*50
14:05:36.948 $GPRMC,200535.300,A,3306.8020,N,09713.9944,W,1.94,86.69,111123,,,A*42
14:05:37.022 $GPGGA,200535.400,3306.8020,N,09713.9943,W,1,07,1.17,230.9,M,-23.8,M,,*50
14:05:37.067 $GPRMC,200535.400,A,3306.8020,N,09713.9943,W,2.01,90.16,111123,,,A*42
14:05:37.137 $GPGGA,200535.500,3306.8020,N,09713.9942,W,1,07,1.17,230.9,M,-23.8,M,,*50
14:05:37.143 $GPRMC,200535.500,A,3306.8020,N,09713.9942,W,2.29,92.67,111123,,,A*4C
14:05:37.252 $GPGGA,200535.600,3306.8020,N,09713.9942,W,1,07,1.17,231.0,M,-23.8,M,,*5B
14:05:37.258 $GPRMC,200535.600,A,3306.8020,N,09713.9942,W,1.96,87.87,111123,,,A*42
14:05:37.329 $GPGGA,200535.700,3306.8020,N,09713.9941,W,1,07,1.17,231.0,M,-23.8,M,,*59
14:05:37.369 $GPRMC,200535.700,A,3306.8020,N,09713.9941,W,1.92,88.14,111123,,,A*41
14:05:37.442 $GPGGA,200535.800,3306.8020,N,09713.9940,W,1,07,1.17,231.0,M,-23.8,M,,*57
